<?xml version="1.0" encoding="UTF-8"?><kml xmlns="http://www.opengis.net/kml/2.2"><Document><Placemark><name>下北沢</name><ExtendedData><Data name="marker-color"><value>#ed0c0c</value></Data><Data name="marker-size"><value>medium</value></Data><Data name="marker-symbol"><value>rail</value></Data><Data name="name"><value>下北沢</value></Data></ExtendedData><Point><coordinates>139.666850566864,35.66135844145681</coordinates></Point></Placemark><Placemark><name>三軒茶屋駅</name><ExtendedData><Data name="marker-color"><value>#ff0a0a</value></Data><Data name="marker-size"><value>medium</value></Data><Data name="marker-symbol"><value>rail</value></Data><Data name="name"><value>三軒茶屋駅</value></Data></ExtendedData><Point><coordinates>139.67118501663208,35.64345185710171</coordinates></Point></Placemark><Placemark><name>桜新町駅</name><ExtendedData><Data name="marker-color"><value>#e60000</value></Data><Data name="marker-size"><value>medium</value></Data><Data name="marker-symbol"><value>rail</value></Data><Data name="name"><value>桜新町駅</value></Data></ExtendedData><Point><coordinates>139.64472770690918,35.63172409517491</coordinates></Point></Placemark><Placemark><name>二子玉川駅</name><ExtendedData><Data name="marker-color"><value>#e60505</value></Data><Data name="marker-size"><value>medium</value></Data><Data name="marker-symbol"><value>rail</value></Data><Data name="name"><value>二子玉川駅</value></Data></ExtendedData><Point><coordinates>139.62713241577148,35.61226703903164</coordinates></Point></Placemark><Placemark><name>経堂駅</name><ExtendedData><Data name="marker-color"><value>#fa0505</value></Data><Data name="marker-size"><value>medium</value></Data><Data name="marker-symbol"><value>rail</value></Data><Data name="name"><value>経堂駅</value></Data></ExtendedData><Point><coordinates>139.63642358779907,35.65140308528166</coordinates></Point></Placemark><Placemark><name>成城学園前駅</name><ExtendedData><Data name="marker-color"><value>#f50a0a</value></Data><Data name="marker-size"><value>medium</value></Data><Data name="marker-symbol"><value>rail</value></Data><Data name="name"><value>成城学園前駅</value></Data></ExtendedData><Point><coordinates>139.59872245788574,35.640086296303785</coordinates></Point></Placemark><Placemark><name>千歳烏山駅</name><ExtendedData><Data name="marker-color"><value>#e20808</value></Data><Data name="marker-size"><value>medium</value></Data><Data name="marker-symbol"><value>rail</value></Data><Data name="name"><value>千歳烏山駅</value></Data></ExtendedData><Point><coordinates>139.6011257171631,35.66831424972323</coordinates></Point></Placemark><Placemark><name>駒沢大学駅</name><ExtendedData><Data name="marker-color"><value>#fb0909</value></Data><Data name="marker-size"><value>medium</value></Data><Data name="marker-symbol"><value>rail</value></Data><Data name="name"><value>駒沢大学駅</value></Data></ExtendedData><Point><coordinates>139.6616792678833,35.63352914902306</coordinates></Point></Placemark><Placemark><name>上北沢駅</name><ExtendedData><Data name="marker-color"><value>#f60404</value></Data><Data name="marker-size"><value>medium</value></Data><Data name="marker-symbol"><value>rail</value></Data><Data name="name"><value>上北沢駅</value></Data></ExtendedData><Point><coordinates>139.623441696167,35.66886772472655</coordinates></Point></Placemark><Placemark><name>世田谷区役所</name><ExtendedData><Data name="marker-color"><value>#e7eb05</value></Data><Data name="marker-size"><value>medium</value></Data><Data name="marker-symbol"><value>town-hall</value></Data><Data name="name"><value>世田谷区役所</value></Data></ExtendedData><Point><coordinates>139.65328931808472,35.646695216791066</coordinates></Point></Placemark><Placemark><name>ルート４</name><ExtendedData><Data name="stroke"><value>#f50a0a</value></Data><Data name="stroke-width"><value>3</value></Data><Data name="stroke-opacity"><value>1</value></Data><Data name="name"><value>ルート４</value></Data></ExtendedData><LineString><coordinates>139.6530532836914,35.646695216791066 139.66094970703125,35.63316290950949 139.6712493896484,35.64362623462754 139.66712951660156,35.661619948970994 139.65974807739258,35.663014641248786 139.65408325195312,35.64767168639377</coordinates></LineString></Placemark><Placemark><name>太子堂区民センター</name><ExtendedData><Data name="marker-color"><value>#06f937</value></Data><Data name="marker-size"><value>medium</value></Data><Data name="marker-symbol"><value>star</value></Data><Data name="name"><value>太子堂区民センター</value></Data><Data name="category"><value>帰宅困難者支援施設</value></Data></ExtendedData><Point><coordinates>139.67355877161026,35.642880768040534</coordinates></Point></Placemark><Placemark><name>上馬地区会館</name><ExtendedData><Data name="marker-color"><value>#08f744</value></Data><Data name="marker-size"><value>medium</value></Data><Data name="marker-symbol"><value>star</value></Data><Data name="name"><value>上馬地区会館</value></Data><Data name="category"><value>帰宅困難者支援施設</value></Data></ExtendedData><Point><coordinates>139.66251477599144,35.635038779303144</coordinates></Point></Placemark><Placemark><name>経堂地区会館</name><ExtendedData><Data name="marker-color"><value>#05ff0d</value></Data><Data name="marker-size"><value>medium</value></Data><Data name="marker-symbol"><value>star</value></Data><Data name="name"><value>経堂地区会館</value></Data><Data name="category"><value>帰宅困難者支援施設</value></Data></ExtendedData><Point><coordinates>139.63212668895721,35.65178667715628</coordinates></Point></Placemark><Placemark><name>代田区民センター</name><ExtendedData><Data name="marker-color"><value>#07ed0f</value></Data><Data name="marker-size"><value>medium</value></Data><Data name="marker-symbol"><value>star</value></Data><Data name="name"><value>代田区民センター</value></Data><Data name="category"><value>帰宅困難者支援施設</value></Data></ExtendedData><Point><coordinates>139.66065466403958,35.66279890137982</coordinates></Point></Placemark><Placemark><name>新代田駅</name><ExtendedData><Data name="marker-color"><value>#f50505</value></Data><Data name="marker-size"><value>medium</value></Data><Data name="marker-symbol"><value>rail</value></Data><Data name="name"><value>新代田駅</value></Data></ExtendedData><Point><coordinates>139.6605071425438,35.662620207309594</coordinates></Point></Placemark><Placemark><name>北沢総合支所</name><ExtendedData><Data name="marker-color"><value>#0af51a</value></Data><Data name="marker-size"><value>medium</value></Data><Data name="marker-symbol"><value>star</value></Data><Data name="name"><value>北沢総合支所</value></Data><Data name="category"><value>帰宅困難者支援施設</value></Data></ExtendedData><Point><coordinates>139.6697862446308,35.66213751340121</coordinates></Point></Placemark><Placemark><name>深沢区民センター</name><ExtendedData><Data name="marker-color"><value>#13fb59</value></Data><Data name="marker-size"><value>medium</value></Data><Data name="marker-symbol"><value>star</value></Data><Data name="name"><value>深沢区民センター</value></Data><Data name="category"><value>帰宅困難者支援施設</value></Data></ExtendedData><Point><coordinates>139.65386867523193,35.62020392677133</coordinates></Point></Placemark><Placemark><name>桜新町区民集会所</name><ExtendedData><Data name="marker-color"><value>#08f724</value></Data><Data name="marker-size"><value>medium</value></Data><Data name="marker-symbol"><value>star</value></Data><Data name="name"><value>桜新町区民集会所</value></Data><Data name="category"><value>帰宅困難者支援施設</value></Data></ExtendedData><Point><coordinates>139.64398205280304,35.62835477028045</coordinates></Point></Placemark><Placemark><name>ルート５</name><ExtendedData><Data name="stroke"><value>#0111f4</value></Data><Data name="stroke-width"><value>3</value></Data><Data name="stroke-opacity"><value>1</value></Data><Data name="name"><value>ルート５</value></Data></ExtendedData><LineString><coordinates>139.6529245376587,35.646520845963224 139.6448564529419,35.631697934674555 139.62713241577148,35.61223214987442 139.59880828857422,35.639859595403166 139.60121154785156,35.66831424972323 139.62348461151123,35.668776205502624 139.63631629943848,35.65143795734638 139.6520233154297,35.64655572015924</coordinates></LineString></Placemark><Placemark><name>砧区民会館成城ホール</name><ExtendedData><Data name="marker-color"><value>#1be90c</value></Data><Data name="marker-size"><value>medium</value></Data><Data name="marker-symbol"><value>star</value></Data><Data name="name"><value>砧区民会館成城ホール</value></Data><Data name="category"><value>帰宅困難者支援施設</value></Data></ExtendedData><Point><coordinates>139.60064828395844,35.641333139761336</coordinates></Point></Placemark><Placemark><name>大蔵第二運動場ロビー</name><ExtendedData><Data name="marker-color"><value>#09ec23</value></Data><Data name="marker-size"><value>medium</value></Data><Data name="marker-symbol"><value>star</value></Data><Data name="name"><value>大蔵第二運動場ロビー</value></Data><Data name="category"><value>帰宅困難者支援施設</value></Data></ExtendedData><Point><coordinates>139.61758911609647,35.63220806288712</coordinates></Point></Placemark><Placemark><name>烏山区民センター</name><ExtendedData><Data name="marker-color"><value>#09f143</value></Data><Data name="marker-size"><value>medium</value></Data><Data name="marker-symbol"><value>star</value></Data><Data name="name"><value>烏山区民センター</value></Data><Data name="category"><value>帰宅困難者支援施設</value></Data></ExtendedData><Point><coordinates>139.6006429195404,35.66880889095177</coordinates></Point></Placemark><Placemark><name>上北沢区民センター</name><ExtendedData><Data name="marker-color"><value>#0cdf1a</value></Data><Data name="marker-size"><value>medium</value></Data><Data name="marker-symbol"><value>star</value></Data><Data name="name"><value>上北沢区民センター</value></Data><Data name="category"><value>帰宅困難者支援施設</value></Data></ExtendedData><Point><coordinates>139.62543725967407,35.66744698589821</coordinates></Point></Placemark></Document></kml>